[
  {
    "citie": {
      "name": "الدار البيضاء - سطات",
      "coordinate": {
        "lat": 33.5439,
        "long": -7.6418
      }
    },
    "cases": 117
  },
  {
    "citie": {
      "name": "الرباط - سلا - القنيطرة",
      "coordinate": {
        "lat": 33.98,
        "long": -6.854
      }
    },
    "cases": 71
  },
  {
    "citie": {
      "name": "مراكش - أسفي",
      "coordinate": {
        "lat": 31.641321948498348,
        "long": -8.001021485938486
      }
    },
    "cases": 70
  },
  {
    "citie": {
      "name": "فاس - مكناس",
      "coordinate": {
        "lat": 33.982766306554396,
        "long": -5.169321031047096
      }
    },
    "cases": 66
  },
  {
    "citie": {
      "name": "طنجة - تطوان - الحسيمة",
      "coordinate": {
        "lat": 35.72092801411059,
        "long": -5.631968055589189
      }
    },
    "cases": 25
  },
  {
    "citie": {
      "name": "الجهة الشرقية",
      "coordinate": {
        "lat": 34.789442631745565,
        "long": -2.0931325707345927
      }
    },
    "cases": 13
  },
  {
    "citie": {
      "name": "سوس - ماسة",
      "coordinate": {
        "lat": 30.390882780967285,
        "long": -9.412129374856876
      }
    },
    "cases": 11
  },
  {
    "citie": {
      "name": "بني ملال - خنيفرة",
      "coordinate": {
        "lat": 32.34121605835995,
        "long": -6.3538832397883
      }
    },
    "cases": 10
  },
  {
    "citie": {
      "name": "درعة تافيلالت",
      "coordinate": {
        "lat": 31.931884153102278,
        "long": -4.409089090968569
      }
    },
    "cases": 6
  },
  {
    "citie": {
      "name": "كلميم - واد نون",
      "coordinate": {
        "lat": 28.96139660952168,
        "long": -10.027085562193431
      }
    },
    "cases": 1
  },
  {
    "citie": {
      "name": "الداخلة - وادي الذهب",
      "coordinate": {
        "lat": 23.76261871984658,
        "long": -15.714979400438038
      }
    },
    "cases": 0
  },
  {
    "citie": {
      "name": "العيون - الساقية الحمراء",
      "coordinate": {
        "lat": 27.15107956652234,
        "long": -13.203717899569495
      }
    },
    "cases": 0
  }
]
